[{"league":"NFL","location_id":1,"stadium":"GEHA Field at Arrowhead Stadium","stadium_capacity":0,"city":"Kansas City","state":"MO","latitude":null,"longitude":null},{"league":"NFL","location_id":2,"stadium":"Corinthians Arena","stadium_capacity":0,"city":"Sao Paulo ","state":null,"latitude":"-23.5452934","longitude":"-46.474286436433154"},{"league":"NFL","location_id":3,"stadium":"Mercedes-Benz Stadium","stadium_capacity":0,"city":"Atlanta","state":"GA","latitude":"33.7554123","longitude":"-84.40084932004368"},{"league":"NFL","location_id":4,"stadium":"Highmark Stadium","stadium_capacity":0,"city":"Orchard Park","state":"NY","latitude":"40.436238700000004","longitude":"-80.00957823680824"},{"league":"NFL","location_id":5,"stadium":"Soldier Field","stadium_capacity":0,"city":"Chicago","state":"IL","latitude":"41.8623356","longitude":"-87.61764770075143"},{"league":"NFL","location_id":6,"stadium":"Paycor Stadium","stadium_capacity":0,"city":"Cincinnati","state":"OH","latitude":"39.0954645","longitude":"-84.5160488350198"},{"league":"NFL","location_id":7,"stadium":"Lucas Oil Stadium","stadium_capacity":0,"city":"Indianapolis","state":"IN","latitude":"39.7590621","longitude":"-86.16383761053042"},{"league":"NFL","location_id":8,"stadium":"Hard Rock Stadium","stadium_capacity":0,"city":"Miami Gardens","state":"FL","latitude":"25.95790315","longitude":"-80.24001919530573"},{"league":"NFL","location_id":9,"stadium":"Caesars Superdome","stadium_capacity":0,"city":"New Orleans","state":"LA","latitude":"29.9510489","longitude":"-90.08230762538903"},{"league":"NFL","location_id":10,"stadium":"MetLife Stadium","stadium_capacity":0,"city":"East Rutherford","state":"NJ","latitude":"40.81352375","longitude":"-74.07340074891175"},{"league":"NFL","location_id":11,"stadium":"SoFi Stadium","stadium_capacity":0,"city":"Inglewood","state":"CA","latitude":"33.95340735","longitude":"-118.33900981025587"},{"league":"NFL","location_id":12,"stadium":"Lumen Field","stadium_capacity":0,"city":"Seattle","state":"WA","latitude":"47.5953459","longitude":"-122.33164431196111"},{"league":"NFL","location_id":13,"stadium":"Cleveland Browns Stadium","stadium_capacity":0,"city":"Cleveland","state":"OH","latitude":"41.5060559","longitude":"-81.69971184525946"},{"league":"NFL","location_id":14,"stadium":"Raymond James Stadium","stadium_capacity":0,"city":"Tampa","state":"FL","latitude":"27.97597925","longitude":"-82.50421799673616"},{"league":"NFL","location_id":15,"stadium":"Ford Field","stadium_capacity":0,"city":"Detroit","state":"MI","latitude":"42.33995675","longitude":"-83.04561657403696"},{"league":"NFL","location_id":16,"stadium":"Levi's Stadium","stadium_capacity":0,"city":"Santa Clara","state":"CA","latitude":"37.403158250000004","longitude":"-121.96983144425579"},{"league":"NFL","location_id":17,"stadium":"AT&T Stadium","stadium_capacity":0,"city":"Arlington","state":"TX","latitude":"47.59397","longitude":"14.12456"},{"league":"NFL","location_id":18,"stadium":"Lambeau Field","stadium_capacity":0,"city":"Green Bay","state":"WI","latitude":"44.50095825","longitude":"-88.06103404376007"},{"league":"NFL","location_id":19,"stadium":"Nissan Stadium","stadium_capacity":0,"city":"Nashville","state":"TN","latitude":"35.5099882","longitude":"139.60638254387774"},{"league":"NFL","location_id":20,"stadium":"U.S. Bank Stadium","stadium_capacity":0,"city":"Minneapolis","state":"MN","latitude":"44.9751097","longitude":"-93.2593387"},{"league":"NFL","location_id":21,"stadium":"Gillette Stadium","stadium_capacity":0,"city":"Foxborough","state":"MA","latitude":"42.091252600000004","longitude":"-71.2644646105907"},{"league":"NFL","location_id":22,"stadium":"Commanders Field","stadium_capacity":0,"city":"Landover","state":"MD","latitude":"38.9077002","longitude":"-76.86332608690218"},{"league":"NFL","location_id":23,"stadium":"Bank of America Stadium","stadium_capacity":0,"city":"Charlotte","state":"NC","latitude":"35.225737","longitude":"-80.8527666409835"},{"league":"NFL","location_id":24,"stadium":"EverBank Stadium","stadium_capacity":0,"city":"Jacksonville","state":"FL","latitude":null,"longitude":null},{"league":"NFL","location_id":25,"stadium":"M&T Bank Stadium","stadium_capacity":0,"city":"Baltimore","state":"MD","latitude":"2.3293744","longitude":"102.2880962"},{"league":"NFL","location_id":26,"stadium":"State Farm Stadium","stadium_capacity":0,"city":"Glendale","state":"AZ","latitude":"33.52779565","longitude":"-112.26267190264335"},{"league":"NFL","location_id":27,"stadium":"Empower Field at Mile High","stadium_capacity":0,"city":"Denver","state":"CO","latitude":"39.7434472","longitude":"-105.0132309"},{"league":"NFL","location_id":28,"stadium":"NRG Stadium","stadium_capacity":0,"city":"Houston","state":"TX","latitude":"29.6848581","longitude":"-95.41080145326987"},{"league":"NFL","location_id":29,"stadium":"Lincoln Financial Field","stadium_capacity":0,"city":"Philadelphia","state":"PA","latitude":"39.9009099","longitude":"-75.16748915605905"},{"league":"NFL","location_id":30,"stadium":"Acrisure Stadium","stadium_capacity":0,"city":"Pittsburgh","state":"PA","latitude":"40.4467166","longitude":"-80.01574564331888"},{"league":"NFL","location_id":31,"stadium":"Allegiant Stadium","stadium_capacity":0,"city":"Las Vegas","state":"NV","latitude":"36.09073585","longitude":"-115.18333029577104"},{"league":"NFL","location_id":32,"stadium":"Tottenham Hotspur Stadium","stadium_capacity":0,"city":"London ","state":null,"latitude":"51.604157","longitude":"-0.0662604100000004"},{"league":"NFL","location_id":33,"stadium":"Wembley Stadium","stadium_capacity":0,"city":"London ","state":null,"latitude":"51.55606945","longitude":"-0.27960339379401444"},{"league":"NFL","location_id":34,"stadium":"Allianz Arena","stadium_capacity":0,"city":"Munich ","state":null,"latitude":"48.21880845","longitude":"11.624663762591622"}]